[
{
"name": "Magi 台北西門店",
"type": "both",
"address": "108台北市萬華區峨嵋街28號2樓",
"city": "台北市",
"area": "西門町",
"note": "日本 magi 海外首店，寶可夢/遊戲王/ONE PIECE 卡都有，店內有對戰交流空間",
"confidence": "high",
"sources": [
"https://torecamap.co.jp/foreign/magi-taipei/",
"https://cardshopmagi.com/shop/magi-taipei/",
"https://www.facebook.com/ximending.taipei.magi/"
],
"lat": 25.044454,
"lng": 121.502976,
"precision": "street"
},
{
"name": "貓腳印 士林店",
"type": "both",
"address": "111台北市士林區大西路66號B1F",
"city": "台北市",
"area": "士林夜市",
"note": "集換式卡牌專門店，寶可夢/MTG 等，有免費入門教學，PTCG 道館及寶可夢日",
"confidence": "high",
"sources": [
"https://www.catfootprint.com/",
"https://www.ptcg-news.com/store-info/north-store"
],
"lat": 25.090853,
"lng": 121.524505,
"precision": "street"
},
{
"name": "東湖拉比卡牌",
"type": "both",
"address": "114台北市內湖區五分街89號2樓",
"city": "台北市",
"area": "內湖東湖",
"note": "主營寶可夢、航海王，提供免費教學，週一公休（週二至五15:00起）",
"confidence": "high",
"sources": [
"https://www.facebook.com/labytcg/",
"https://www.ptcg-news.com/store-info/north-store"
],
"lat": 25.06742,
"lng": 121.61161,
"precision": "district"
},
{
"name": "法雅客 台北信義A9店（寶可夢遊戲道館）",
"type": "pokemon",
"address": "110台北市信義區松壽路9號B2",
"city": "台北市",
"area": "信義區",
"note": "百貨內設寶可夢卡牌道館（新光三越信義新天地A9館B2），有道館賽及寶可夢日",
"confidence": "medium",
"sources": [
"https://www.fayaque.com.tw/location/a9",
"https://www.ptcg-news.com/store-info/north-store"
],
"lat": 25.035851,
"lng": 121.566517,
"precision": "street"
},
{
"name": "Pokémon Center TAIPEI",
"type": "pokemon",
"address": "110台北市信義區松壽路11號",
"city": "台北市",
"area": "信義區",
"note": "台灣首間官方寶可夢中心（新光三越A11館3樓），售卡與周邊；入場需於A11一樓領整理券",
"confidence": "high",
"sources": [
"https://tw.portal-pokemon.com/special/hot_info/pokemoncenter_taipei/",
"https://www.skm.com.tw/skmmedia/lifestyleandfood/living/pokemoncenter"
],
"lat": 25.035851,
"lng": 121.566517,
"precision": "street"
},
{
"name": "決鬥城市卡牌專賣店（台北車站地下街店）",
"type": "both",
"address": "100台北市中正區市民大道一段100號B1",
"city": "台北市",
"area": "台北車站地下街",
"note": "遊戲王/航海王OPCG/寶可夢 TCG 專賣及高價收購，台北車站地下街Y區近Y24；確切舖號各 source 略有出入",
"confidence": "medium",
"sources": [
"https://www.battlecity.com.tw/",
"https://www.instagram.com/hana98173/p/CSE7jCfpc1A/"
],
"lat": 25.048556,
"lng": 121.517142,
"precision": "street"
},
{
"name": "台灣航海王 OPCG 對戰交流址（西門周邊）",
"type": "onepiece",
"address": "108台北市萬華區武昌街二段118-2號",
"city": "台北市",
"area": "西門町",
"note": "⚠️ 原航海王周邊專賣店2020已結業；此址多 source 仍標航海王相關，行前務必先電話確認",
"confidence": "low",
"sources": [
"https://www.4gamers.com.tw/news/detail/42044/taiwan-one-piece-shop-closed",
"https://www.walkerland.com.tw/article/view/210731"
],
"lat": 25.044681,
"lng": 121.507064,
"precision": "street"
},
{
"name": "CardKame 卡卡咩",
"type": "both",
"address": "220新北市板橋區府中路87號3樓",
"city": "新北市",
"area": "板橋府中",
"note": "PTCG寶可夢/OPCG航海王/遊戲王/FAB 等全卡種，售卡及周邊",
"confidence": "high",
"sources": [
"https://www.facebook.com/people/CardKame-%E5%8D%A1%E5%8D%A1%E5%92%A9/61569783411898/",
"https://www.ptcg-news.com/store-info/north-store"
],
"lat": 25.009564,
"lng": 121.456051,
"precision": "street"
},
{
"name": "貓腳印 桃園店",
"type": "both",
"address": "330桃園市桃園區中華路1號11樓",
"city": "桃園市",
"area": "桃園火車站商圈",
"note": "PTCG寶可夢等多卡種，連鎖卡牌店，有交流場地與賽事",
"confidence": "medium",
"sources": [
"https://www.catfootprint.com/",
"https://www.facebook.com/CatFootPrintTaoyuan.tw/"
],
"lat": 24.990825,
"lng": 121.310584,
"precision": "street"
},
{
"name": "貓腳印 中壢店",
"type": "both",
"address": "320桃園市中壢區中央東路13號6樓",
"city": "桃園市",
"area": "中壢中央商圈",
"note": "寶可夢/遊戲王/航海王，免費不限時交流場地，每日2種賽事/活動",
"confidence": "high",
"sources": [
"https://today.line.me/tw/v2/article/MLvJ09M",
"https://www.facebook.com/CatFootPrintTaoyuan.tw/"
],
"lat": 24.957014,
"lng": 121.224317,
"precision": "street"
},
{
"name": "新竹新世紀卡牌遊戲店",
"type": "both",
"address": "300新竹市北區平和街7號2樓",
"city": "新竹市",
"area": "新竹火車站周邊",
"note": "新竹最大卡牌專門店，遊戲王/寶可夢TCG/航海王/MTG 等齊全，近新竹火車站",
"confidence": "high",
"sources": [
"https://www.facebook.com/newage.card.shop/",
"https://taiwan.worldplaces.me/review/95048147.html"
],
"lat": 24.804776,
"lng": 120.96716,
"precision": "street"
},
{
"name": "牌牌戰 卡牌專賣店",
"type": "both",
"address": "404台中市北區成功路401號",
"city": "台中市",
"area": "台中北區",
"note": "遊戲王/寶可夢等TCG，提供教學、販售及比賽",
"confidence": "medium",
"sources": [
"https://www.facebook.com/PAIPAIZHAN/",
"https://www.ptcg-news.com/store-info/central-store"
],
"lat": 24.146256,
"lng": 120.676617,
"precision": "street"
},
{
"name": "森柒柒 TCG 卡牌桌遊",
"type": "pokemon",
"address": "404台中市北區一中街173號2樓",
"city": "台中市",
"area": "一中街商圈",
"note": "PTCG寶可夢卡＋桌遊空間，每週二、五辦寶可夢奪盒爭奪賽及交流賽，有甜點飲品",
"confidence": "high",
"sources": [
"https://www.soeasy.today/store/aom20211228004",
"https://www.facebook.com/san77TCGame/"
],
"lat": 24.15088,
"lng": 120.685583,
"precision": "district"
},
{
"name": "鬥樂 一中店",
"type": "pokemon",
"address": "404台中市北區尊賢街9號4樓",
"city": "台中市",
"area": "一中街商圈",
"note": "寶可夢卡牌繁中版及周邊，舉辦寶可夢繁中版官方賽事，假日10:00開",
"confidence": "high",
"sources": [
"https://www.douletcg.com/",
"https://www.facebook.com/Fight4Fun.Cards/?locale=zh_TW"
],
"lat": 24.148403,
"lng": 120.68577,
"precision": "street"
},
{
"name": "台南卡通卡片遊戲店",
"type": "both",
"address": "701台南市東區勝利路69號B1",
"city": "台南市",
"area": "東區（成大商圈）",
"note": "MTG/WS/寶可夢/遊戲王 等集換式卡片，可代訂卡片及桌遊",
"confidence": "high",
"sources": [
"https://www.instagram.com/tainancartoontcg/",
"https://www.ptcg-news.com/store-info/south-store"
],
"lat": 22.998568,
"lng": 120.218381,
"precision": "street"
},
{
"name": "Pokémon Play Lab GAME休閒館（台南店）",
"type": "pokemon",
"address": "700台南市中西區民族路二段62號2樓",
"city": "台南市",
"area": "中西區（赤崁/民族路）",
"note": "台灣首間官方 Play Lab（GAME休閒館2樓），可免費玩寶可夢卡牌，週六寶可夢日、週日道館賽",
"confidence": "high",
"sources": [
"https://asia.pokemon-card.com/tw/archives/7661/",
"https://gnn.gamer.com.tw/detail.php?sn=265760"
],
"lat": 22.995215,
"lng": 120.207136,
"precision": "street"
},
{
"name": "紙牌屋 Card Cellar",
"type": "both",
"address": "701台南市東區東門路一段354號10樓",
"city": "台南市",
"area": "東區（東門圓環）",
"note": "MTG/寶可夢/遊戲王/航海王(Bandai) 等全卡種，提供賽事及 PSA/BGS 鑑定，有免費新手教學",
"confidence": "high",
"sources": [
"https://www.card-cellar.com/pages/about-us",
"https://www.facebook.com/CardCellarTW/"
],
"lat": 22.986736,
"lng": 120.218485,
"precision": "street"
},
{
"name": "貓腳印 高雄巨蛋店",
"type": "both",
"address": "813高雄市左營區立文路77號6樓",
"city": "高雄市",
"area": "左營（高雄巨蛋商圈）",
"note": "寶可夢/遊戲王/航海王/鋼彈 等TCG及周邊，連鎖卡牌店有賽事場地",
"confidence": "medium",
"sources": [
"https://www.facebook.com/CatFootPrintKaohSiung.tw/",
"https://www.ptcg-news.com/store-info/south-store"
],
"lat": 22.681239,
"lng": 120.316735,
"precision": "street"
},
{
"name": "嗷嗚桌遊（Fun4嗷嗚桌遊）",
"type": "pokemon",
"address": "802高雄市苓雅區忠孝二路2-2號",
"city": "高雄市",
"area": "苓雅（近捷運三多商圈站）",
"note": "推廣寶可夢卡牌及桌遊，週一二四公休，平日18:00起、假日14:00起",
"confidence": "medium",
"sources": [
"https://spot.line.me/detail/666793926262266003",
"https://www.instagram.com/op_aowu/"
],
"lat": 22.617428,
"lng": 120.309067,
"precision": "street"
},
{
"name": "Pokémon Play Lab GAME休閒館 二號店（高雄店）",
"type": "pokemon",
"address": "807高雄市三民區建國二路166號3樓",
"city": "高雄市",
"area": "三民（高雄火車站周邊）",
"note": "官方 Play Lab 二號店（GAME休閒館高雄旗艦門市3樓），售寶可夢卡牌及周邊，辦寶可夢卡牌日及道館賽",
"confidence": "high",
"sources": [
"https://asia.pokemon-card.com/tw/archives/12031/",
"https://gnn.gamer.com.tw/detail.php?sn=299600"
],
"lat": 22.638353,
"lng": 120.302516,
"precision": "street"
},
{
"name": "高雄龐奇桌遊",
"type": "pokemon",
"address": "802高雄市苓雅區泰順街29號",
"city": "高雄市",
"area": "苓雅",
"note": "正版桌遊及卡牌專賣，有寶可夢卡牌，建議行前確認航海王供應",
"confidence": "low",
"sources": [
"https://www.punchboardgame.com/"
],
"lat": 22.631739,
"lng": 120.319156,
"precision": "street"
}
]